,City,Lat,Lng,Max Temp,Humidity,Cloudiness,Wind Speed,Country,Date
0,vila velha,-20.3297,-40.2925,78.75,69,40,14.97,BR,1635016282
1,kahului,20.8947,-156.47,81.66,78,40,14.97,US,1635016283
2,ponta do sol,32.6667,-17.1,70.43,53,24,4.52,PT,1635016283
3,rikitea,-23.1203,-134.9692,74.77,82,96,20.58,PF,1635016283
4,bathsheba,13.2167,-59.5167,86.61,66,40,21.85,BB,1635016284
5,swift current,50.2834,-107.8014,43.61,70,75,24.16,CA,1635016158
6,busselton,-33.65,115.3333,52.09,79,100,5.64,AU,1635016284
7,cherskiy,68.75,161.3,-1.66,99,98,2.39,RU,1635016284
8,hasaki,35.7333,140.8333,39.6,49,2,8.88,JP,1635016285
9,hobart,-42.8794,147.3294,51.03,92,75,1.99,AU,1635016285
10,qaanaaq,77.484,-69.3632,-0.76,57,0,8.43,GL,1635016285
11,barrow,71.2906,-156.7887,28.42,86,90,17.27,US,1635016286
12,saldanha,-33.0117,17.9442,60.3,70,69,5.86,ZA,1635016286
13,barcelos,41.5388,-8.6151,61.84,75,91,2.86,PT,1635016286
14,longhua,23.6137,114.1919,57.52,87,89,3.04,CN,1635016287
15,takhli,15.2634,100.3438,73.6,87,12,7.49,TH,1635016287
16,mataura,-46.1927,168.8643,49.48,97,100,0.4,NZ,1635016287
17,yellowknife,62.456,-114.3525,43.29,84,99,18.01,CA,1635016287
18,lata,40.1629,-8.3327,59.81,60,98,1.66,PT,1635016288
19,ancud,-41.8697,-73.8203,59.43,59,2,11.21,CL,1635016288
20,ushuaia,-54.8,-68.3,33.46,93,75,29.93,AR,1635016288
21,bambous virieux,-20.3428,57.7575,74.21,78,30,10.54,MU,1635016289
22,cape town,-33.9258,18.4232,61.27,68,22,1.01,ZA,1635016268
23,marawi,7.9986,124.2928,66.65,91,93,4.0,PH,1635016289
24,chokurdakh,70.6333,147.9167,-2.47,98,100,6.02,RU,1635016289
25,graciano sanchez,23.9167,-99.2833,83.35,57,1,5.86,MX,1635016290
26,rokytne,51.2796,27.214,43.09,76,87,11.21,UA,1635016290
27,upernavik,72.7868,-56.1549,19.74,83,100,6.58,GL,1635016290
28,bubaque,11.2833,-15.8333,84.13,69,97,9.22,GW,1635016291
29,saint-pierre,-21.3393,55.4781,74.88,85,0,4.61,RE,1635016291
30,sharan,54.8167,54.0,43.88,79,60,7.47,RU,1635016291
31,clyde river,70.4692,-68.5914,22.91,79,94,17.16,CA,1635016291
32,vardo,70.3705,31.1107,33.89,74,100,16.58,NO,1635016292
33,oni,42.5794,43.4425,48.04,76,0,4.14,GE,1635016292
34,namatanai,-3.6667,152.4333,79.02,81,29,7.11,PG,1635016292
35,delano,35.7688,-119.247,68.07,40,20,5.77,US,1635016293
36,linkoping,58.4109,15.6216,34.52,88,18,3.44,SE,1635016293
37,albany,42.6001,-73.9662,55.58,58,96,1.01,US,1635016050
38,leshukonskoye,64.8989,45.7622,22.98,94,70,4.25,RU,1635016293
39,kodiak,57.79,-152.4072,44.11,76,90,10.36,US,1635016293
40,punta arenas,-53.15,-70.9167,44.71,49,75,36.82,CL,1635016294
41,kapaa,22.0752,-159.319,80.58,80,20,5.01,US,1635016294
42,formosa do rio preto,-11.0483,-45.1931,85.64,52,100,4.45,BR,1635016295
43,tuktoyaktuk,69.4541,-133.0374,24.62,93,31,8.88,CA,1635016295
44,hilo,19.7297,-155.09,82.27,96,90,1.01,US,1635016295
45,cayenne,4.9333,-52.3333,80.1,82,75,8.01,GF,1635016295
46,hithadhoo,-0.6,73.0833,82.24,75,66,12.19,MV,1635016296
47,puerto ayacucho,5.6639,-67.6236,89.67,60,57,2.46,VE,1635016296
48,qostanay,53.1667,63.5833,48.49,81,0,11.18,KZ,1635016296
49,ribeira grande,38.5167,-28.7,70.2,68,75,0.0,PT,1635016297
50,san patricio,28.017,-97.5169,88.52,49,14,14.23,US,1635016297
51,husavik,66.0449,-17.3389,40.68,97,100,4.21,IS,1635016297
52,lakatoro,-16.0999,167.4164,78.73,84,42,7.7,VU,1635016298
53,asosa,10.0667,34.5333,63.79,71,4,5.55,ET,1635016298
54,wajima,37.4,136.9,57.49,56,81,4.83,JP,1635016298
55,saint anthony,45.0205,-93.218,52.93,51,1,1.01,US,1635016299
56,new norfolk,-42.7826,147.0587,50.67,81,100,7.0,AU,1635016299
57,dhidhdhoo,6.8833,73.1,81.05,80,100,13.31,MV,1635016299
58,mayumba,-3.432,10.6554,76.86,89,92,5.64,GA,1635016300
59,klaksvik,62.2266,-6.589,50.92,96,100,22.48,FO,1635016300
60,nikolskoye,59.7035,30.7861,36.79,88,100,9.06,RU,1635016300
61,mandalgovi,45.7625,106.2708,34.68,35,0,5.03,MN,1635016301
62,sawtell,-30.3833,153.1,67.19,96,0,0.0,AU,1635016301
63,beruwala,6.4788,79.9828,79.63,80,67,6.85,LK,1635016301
64,sitka,57.0531,-135.33,46.29,76,90,11.5,US,1635016302
65,longyearbyen,78.2186,15.6401,19.24,79,40,4.61,SJ,1635016302
66,flagstaff,35.1981,-111.6513,62.1,31,1,13.0,US,1635016302
67,jamestown,42.097,-79.2353,51.39,90,90,8.01,US,1635016302
68,novaya chigla,51.2233,40.4781,46.67,51,56,9.06,RU,1635016303
69,baruun-urt,46.6806,113.2792,34.63,43,87,7.78,MN,1635016303
70,cabo san lucas,22.8909,-109.9124,89.51,58,20,11.5,MX,1635016198
71,torbay,47.6666,-52.7314,63.88,89,100,14.16,CA,1635016304
72,kastamonu,41.5,33.6667,48.78,68,98,2.98,TR,1635016304
73,lagoa,39.05,-27.9833,66.31,71,0,13.31,PT,1635016304
74,maltahohe,-24.8333,16.9833,58.05,43,0,16.64,NA,1635016305
75,avera,33.194,-82.5271,76.51,38,0,4.16,US,1635016305
76,severo-yeniseyskiy,60.3725,93.0408,31.03,92,100,14.36,RU,1635016305
77,bluff,-46.6,168.3333,51.6,92,100,3.04,NZ,1635016306
78,vaini,-21.2,-175.2,71.76,83,75,12.66,TO,1635016306
79,thurso,58.5927,-3.5259,53.85,75,100,19.6,GB,1635016306
80,catuday,16.2923,119.8062,78.49,79,100,12.26,PH,1635016306
81,meulaboh,4.1363,96.1285,77.11,89,100,4.52,ID,1635016307
82,saint-philippe,-21.3585,55.7679,74.79,82,82,12.62,RE,1635016307
83,bengkulu,-3.8004,102.2655,76.21,89,80,2.89,ID,1635016307
84,la ligua,-32.4524,-71.2311,69.58,39,0,10.4,CL,1635016308
85,sabla,12.7525,4.7077,81.9,60,100,10.49,NG,1635016308
86,zhigansk,66.7697,123.3711,22.71,95,100,18.97,RU,1635016308
87,pisco,-13.7,-76.2167,69.85,64,0,19.57,PE,1635016309
88,mahebourg,-20.4081,57.7,74.25,79,23,10.78,MU,1635016309
89,verkhnevilyuysk,63.4453,120.3167,36.09,88,100,10.09,RU,1635016309
90,puerto ayora,-0.7393,-90.3518,78.76,82,99,9.78,EC,1635016310
91,ocampo,21.65,-101.5,74.28,37,53,3.31,MX,1635016310
92,komsomolskiy,40.4272,71.7189,44.02,60,0,9.22,UZ,1635016310
93,mount gambier,-37.8333,140.7667,49.75,71,100,8.28,AU,1635016311
94,geraldton,-28.7667,114.6,54.01,94,0,4.61,AU,1635016311
95,karla,59.3723,24.9275,37.36,81,75,10.36,EE,1635016311
96,marshall,34.3834,-86.3333,73.96,52,1,3.44,US,1635016285
97,launceston,-41.45,147.1667,49.15,97,90,0.0,AU,1635016312
98,severo-kurilsk,50.6789,156.125,39.42,78,100,9.13,RU,1635016312
99,lethem,3.3803,-59.7968,93.16,42,63,6.85,GY,1635016312
100,port alfred,-33.5906,26.891,61.21,70,0,27.11,ZA,1635016312
101,kindia,10.0569,-12.8658,73.26,92,100,2.44,GN,1635016313
102,salalah,17.0151,54.0924,77.09,73,0,3.44,OM,1635016313
103,aasiaat,68.7098,-52.8699,19.17,89,91,3.6,GL,1635016313
104,athabasca,54.7169,-113.2854,35.13,77,100,8.08,CA,1635016314
105,matara,5.9485,80.5353,78.26,82,26,8.39,LK,1635016314
106,avarua,-21.2078,-159.775,73.45,56,40,10.36,CK,1635016266
107,amapa,1.0,-52.0,94.91,35,83,2.21,BR,1635016314
108,kaitangata,-46.2817,169.8464,49.96,90,100,2.91,NZ,1635016315
109,victor harbor,-35.5667,138.6167,55.99,76,12,8.46,AU,1635016315
110,port hardy,50.6996,-127.4199,49.44,80,28,5.95,CA,1635016315
111,fairbanks,64.8378,-147.7164,35.31,88,1,0.0,US,1635016232
112,ornskoldsvik,63.2909,18.7153,29.35,93,90,4.61,SE,1635016316
113,flin flon,54.7682,-101.865,39.63,72,100,10.54,CA,1635016316
114,butaritari,3.0707,172.7902,81.0,73,100,5.86,KI,1635016316
115,henties bay,-22.116,14.2845,60.85,85,0,13.38,NA,1635016317
116,garoua boulai,5.8833,14.55,65.8,94,88,3.4,CM,1635016317
117,gorgan,36.8387,54.4348,48.16,93,0,0.0,IR,1635016317
118,rawson,-43.3002,-65.1023,59.77,26,36,5.93,AR,1635016318
119,tapes,-30.6733,-51.3958,66.34,93,100,6.71,BR,1635016318
120,lebu,-37.6167,-73.65,54.73,69,27,9.46,CL,1635016318
121,gold coast,-28.0,153.4333,73.18,93,100,3.0,AU,1635016318
122,portland,45.5234,-122.6762,54.61,94,90,3.0,US,1635015888
123,chuy,-33.6971,-53.4616,64.08,63,100,0.81,UY,1635016319
124,kroonstad,-27.6504,27.2349,59.76,26,0,16.71,ZA,1635016301
125,leningradskiy,69.3833,178.4167,8.37,89,100,7.92,RU,1635016319
126,faanui,-16.4833,-151.75,78.12,73,100,3.87,PF,1635016320
127,datong,40.0936,113.2914,43.05,50,57,3.62,CN,1635016320
128,east london,-33.0153,27.9116,62.83,62,25,22.64,ZA,1635016320
129,parrita,9.5201,-84.3225,88.41,75,100,5.19,CR,1635016321
130,port lincoln,-34.7333,135.8667,53.1,79,2,9.51,AU,1635016321
131,jinotega,13.0917,-86.0018,77.09,71,65,3.11,NI,1635016321
132,bredasdorp,-34.5322,20.0403,56.28,70,39,4.36,ZA,1635016322
133,tongliao,43.6125,122.2653,44.42,50,0,6.87,CN,1635016323
134,bowen,-20.0167,148.2333,76.55,75,57,6.29,AU,1635016323
135,padang,-0.9492,100.3543,77.07,89,94,3.36,ID,1635016323
136,anadyr,64.75,177.4833,-5.3,84,40,6.71,RU,1635016324
137,aksarka,66.5606,67.7975,27.63,92,81,11.25,RU,1635016324
138,palmer,42.1584,-72.3287,61.32,51,10,1.99,US,1635016324
139,raudeberg,61.9875,5.1352,45.27,66,100,20.4,NO,1635016325
140,whitehorse,60.7161,-135.0538,41.02,74,100,10.0,CA,1635016325
141,tambun,-6.2641,107.0712,80.04,78,93,3.42,ID,1635016325
142,norman wells,65.282,-126.8329,35.58,80,17,2.93,CA,1635016321
143,margate,51.3813,1.3862,55.31,75,11,14.27,GB,1635016326
144,tasiilaq,65.6145,-37.6368,33.96,89,100,4.23,GL,1635016326
145,silca,14.8333,-86.5333,92.21,56,21,4.79,HN,1635016326
146,pemangkat,1.1667,108.9667,77.32,83,99,3.78,ID,1635016327
147,fengzhen,40.4394,113.1536,40.32,51,13,3.29,CN,1635016327
148,hay river,60.8156,-115.7999,45.36,63,97,11.77,CA,1635016327
149,nanortalik,60.1432,-45.2371,35.94,74,45,4.34,GL,1635016328
150,ust-nera,64.5667,143.2,-1.12,99,74,3.96,RU,1635016328
151,druzhnaya gorka,59.2761,30.1425,35.19,83,100,10.94,RU,1635016329
152,hovd,48.0056,91.6419,35.33,55,4,6.87,MN,1635016329
153,skibbereen,51.55,-9.2667,55.2,96,100,29.51,IE,1635016329
154,hamilton,39.1834,-84.5333,61.03,67,90,1.99,US,1635016127
155,jaicos,-7.3592,-41.1378,89.82,41,89,1.5,BR,1635016330
156,rosita,13.9268,-84.4032,90.28,52,65,5.12,NI,1635016330
157,hermanus,-34.4187,19.2345,57.9,70,7,5.91,ZA,1635016331
158,carnarvon,-24.8667,113.6333,66.27,77,0,10.36,AU,1635016331
159,estevan,49.1334,-102.9842,46.74,51,100,20.18,CA,1635016331
160,torbat-e jam,35.244,60.6225,49.84,19,0,4.76,IR,1635016331
161,maragogi,-9.0122,-35.2225,81.61,72,31,11.32,BR,1635016332
162,klyuchi,52.2667,79.1667,47.55,53,100,18.92,RU,1635016332
163,rondonopolis,-16.4708,-54.6356,98.26,30,71,10.71,BR,1635016295
164,dikson,73.5069,80.5464,9.82,87,98,12.91,RU,1635016333
165,ketchikan,55.3422,-131.6461,43.27,93,90,10.36,US,1635016167
166,preobrazheniye,42.9019,133.9064,44.78,58,0,8.66,RU,1635016333
167,iqaluit,63.7506,-68.5145,34.7,69,17,8.99,CA,1635016333
168,camabatela,-8.1881,15.375,66.2,92,100,2.06,AO,1635016333
169,castro,-24.7911,-50.0119,72.86,57,100,6.78,BR,1635016334
170,kalmunai,7.4167,81.8167,78.98,82,17,4.94,LK,1635016334
171,la maddalena,41.2142,9.4083,66.25,88,20,13.58,IT,1635016334
172,naze,28.3667,129.4833,67.95,75,100,17.4,JP,1635016335
173,kutum,14.2,24.6667,80.2,18,10,17.0,SD,1635016335
174,mitsamiouli,-11.3847,43.2844,78.67,75,6,6.33,KM,1635016335
175,chicama,-7.8447,-79.1469,63.14,61,25,11.12,PE,1635016336
176,aguimes,27.9054,-15.4461,69.01,69,75,14.97,ES,1635016336
177,mar del plata,-38.0023,-57.5575,68.02,86,75,3.0,AR,1635016336
178,kangaatsiaq,68.3065,-53.4641,27.81,76,100,8.23,GL,1635016337
179,mocuba,-16.8392,36.9856,77.09,65,4,6.42,MZ,1635016337
180,hobyo,5.3505,48.5268,79.61,79,37,11.79,SO,1635016337
181,durusu,41.3053,28.6767,60.84,86,31,5.99,TR,1635016338
182,kamyshevatskaya,46.4132,37.9563,55.42,83,94,7.63,RU,1635016338
183,tabou,4.423,-7.3528,77.47,89,53,7.74,CI,1635016338
184,high rock,26.6208,-78.2833,80.62,70,100,8.39,BS,1635016339
185,khatanga,71.9667,102.5,10.18,92,100,17.34,RU,1635016339
186,tual,-5.6667,132.75,83.68,76,98,13.31,ID,1635016339
187,saint george,37.1041,-113.5841,74.43,22,1,1.99,US,1635016261
188,zaykovo,57.5613,62.7568,42.42,77,75,7.61,RU,1635016340
189,brae,60.3964,-1.353,51.71,92,100,24.27,GB,1635016340
190,port elizabeth,-33.918,25.5701,60.1,63,6,19.82,ZA,1635016205
191,bose,45.4612,8.0137,54.25,86,0,4.68,IT,1635016340
192,nueva concepcion,14.2,-91.3,91.36,70,98,5.01,GT,1635016341
193,tambura,5.6,27.4667,71.73,90,100,2.66,SS,1635016341
194,acapulco,16.8634,-99.8901,77.29,90,100,10.29,MX,1635016341
195,lillebonne,49.5203,0.5362,52.61,77,1,5.77,FR,1635016342
196,betanzos,43.2804,-8.2147,61.32,83,0,1.01,ES,1635016342
197,ocos,14.5094,-92.1933,91.9,77,7,6.8,GT,1635016342
198,miri,4.4148,114.0089,75.9,93,100,4.45,MY,1635016343
199,codrington,-38.2667,141.9667,47.61,79,40,12.75,AU,1635016343
200,berlevag,70.8578,29.0864,35.82,62,100,19.1,NO,1635016343
201,dongying,37.4564,118.4856,50.97,58,3,2.98,CN,1635016343
202,turukhansk,65.8167,87.9833,32.31,98,100,14.07,RU,1635016344
203,pachino,36.7186,15.0907,75.24,90,100,14.61,IT,1635016344
204,miraflores,19.2167,-98.8083,71.02,63,100,2.04,MX,1635016344
205,cap malheureux,-19.9842,57.6142,74.46,76,99,5.99,MU,1635016345
206,saint-joseph,-21.3667,55.6167,73.78,82,67,7.45,RE,1635016345
207,port hedland,-20.3167,118.5667,75.25,38,100,5.75,AU,1635016345
208,linares,-35.85,-71.6,68.68,31,0,9.51,CL,1635016346
209,wanning,18.8003,110.3967,70.65,87,94,11.92,CN,1635016346
210,tallahassee,30.4383,-84.2807,83.93,46,40,5.75,US,1635016346
211,provideniya,64.3833,-173.3,22.73,79,100,8.95,RU,1635016347
212,victoria,22.2855,114.1577,70.25,80,100,5.01,HK,1635016161
213,saqqez,36.2499,46.2735,49.24,37,0,3.96,IR,1635016347
214,samarai,-10.6167,150.6667,80.01,83,99,12.06,PG,1635016347
215,katsuura,35.1333,140.3,53.71,59,5,9.35,JP,1635016347
216,narsaq,60.9167,-46.05,35.82,73,75,1.9,GL,1635016348
217,arraial do cabo,-22.9661,-42.0278,76.86,69,0,18.41,BR,1635016348
218,srednekolymsk,67.45,153.6833,-14.22,99,34,3.91,RU,1635016348
219,usakos,-22.0,15.6,63.01,37,4,8.46,NA,1635016349
220,sinnamary,5.3833,-52.95,82.27,82,99,10.56,GF,1635016349
221,talnakh,69.4865,88.3972,22.93,96,100,6.98,RU,1635016349
222,riyadh,24.6877,46.7219,80.74,23,0,9.17,SA,1635016350
223,motygino,58.1831,94.7592,34.65,96,100,11.83,RU,1635016350
224,broome,42.2506,-75.833,50.2,75,90,1.01,US,1635016350
225,akyab,20.15,92.9,76.23,84,100,5.14,MM,1635016351
226,yaqui,27.3667,-110.1667,90.16,30,0,11.25,MX,1635016351
227,dingle,10.9995,122.6711,74.91,94,100,5.08,PH,1635016351
228,jaumave,23.4167,-99.3833,78.08,47,12,4.43,MX,1635016351
229,tautira,-17.7333,-149.15,78.82,88,100,16.53,PF,1635016352
230,westport,41.1415,-73.3579,61.77,58,1,1.99,US,1635016352
231,great yarmouth,52.6083,1.7305,54.23,67,100,10.98,GB,1635016237
232,saskylakh,71.9167,114.0833,7.39,95,100,16.33,RU,1635016353
233,jawhar,2.7809,45.5005,78.42,79,3,7.78,SO,1635016353
234,matagami,49.7502,-77.6328,40.89,58,96,9.06,CA,1635016353
235,cidreira,-30.1811,-50.2056,68.05,89,100,10.58,BR,1635016353
236,safford,32.834,-109.7076,79.72,21,1,5.75,US,1635016354
237,bakhchysaray,44.75,33.8667,57.6,89,100,0.58,UA,1635016354
238,loudeac,48.1783,-2.7543,49.59,87,1,4.36,FR,1635016354
239,shache,38.4167,77.2406,49.19,40,33,3.91,CN,1635016355
240,ust-tsilma,65.441,52.1498,23.65,95,16,5.23,RU,1635016355
241,guaira,-20.3183,-48.3106,93.88,24,0,9.66,BR,1635016355
242,helmsdale,58.1168,-3.6517,55.94,85,100,12.19,GB,1635016356
243,atuona,-9.8,-139.0333,78.15,78,12,18.34,PF,1635016356
244,karpogory,64.0019,44.4451,15.55,97,97,2.53,RU,1635016356
245,acajutla,13.5928,-89.8275,83.34,74,80,7.85,SV,1635016356
246,olinda,-8.0089,-34.8553,83.93,70,40,9.22,BR,1635016357
247,gat,31.61,34.7642,71.82,100,0,6.26,IL,1635016321
248,jumla,29.2747,82.1838,46.74,84,1,4.45,NP,1635016357
249,maceio,-9.6658,-35.7353,87.24,70,0,16.11,BR,1635016351
250,nalut,30.3333,10.85,75.51,40,100,5.21,LY,1635016358
251,sinolon,6.2439,124.8144,73.06,87,100,1.05,PH,1635016358
252,lao cai,22.4833,103.95,62.62,94,95,0.31,VN,1635016358
253,baiyin,36.5583,104.2081,45.18,71,13,0.56,CN,1635016358
254,faya,18.3851,42.4509,63.12,28,3,6.02,SA,1635016359
255,shimoda,34.6667,138.95,58.1,67,99,10.38,JP,1635016359
256,touros,-5.1989,-35.4608,85.1,63,4,13.02,BR,1635016359
257,kununurra,-15.7667,128.7333,78.78,89,40,2.3,AU,1635016360
258,savannah bight,16.45,-85.85,87.85,75,64,14.88,HN,1635016360
259,rayadrug,14.7,76.8667,70.0,95,100,11.48,IN,1635016360
260,pecos,31.4229,-103.4932,88.63,29,1,0.0,US,1635016361
261,hofn,64.2539,-15.2082,45.05,96,100,5.68,IS,1635016361
262,springbok,-29.6643,17.8865,50.77,65,0,6.04,ZA,1635016361
263,watsonville,36.9102,-121.7569,69.06,74,1,9.22,US,1635016304
264,san cristobal,7.7669,-72.225,82.58,51,84,5.21,VE,1635016362
265,fortuna,40.5982,-124.1573,59.94,79,90,1.99,US,1635016362
266,hambantota,6.1241,81.1185,79.23,79,38,12.77,LK,1635016362
267,vestmanna,62.1564,-7.1664,49.12,100,75,18.41,FO,1635016362
268,peruibe,-24.32,-46.9983,75.54,74,11,6.91,BR,1635016363
269,tonj,7.2737,28.6822,76.75,73,81,1.86,SS,1635016363
270,bilma,18.6853,12.9164,85.77,13,6,8.41,NE,1635016363
271,tilichiki,60.4667,166.1,6.35,88,98,8.19,RU,1635016364
272,muroto,33.2833,134.15,59.97,61,0,13.24,JP,1635016364
273,te anau,-45.4167,167.7167,49.66,95,100,0.96,NZ,1635016364
274,ormara,25.2088,64.6357,80.96,39,0,13.24,PK,1635016364
275,awjilah,29.1081,21.2869,75.88,31,4,9.66,LY,1635016365
276,kimbe,-5.5502,150.1429,74.01,91,52,4.5,PG,1635016365
277,sola,-13.8833,167.55,81.0,77,23,17.87,VU,1635016365
278,umm kaddadah,13.6017,26.6876,90.18,15,41,16.75,SD,1635016366
279,olga,43.7444,135.2892,37.98,70,0,5.86,RU,1635016366
280,roald,62.5833,6.1333,46.54,61,75,13.8,NO,1635016367
281,mareeba,-17.0,145.4333,68.72,97,53,2.48,AU,1635016367
282,georgetown,5.4112,100.3354,80.89,85,20,5.75,MY,1635016105
283,lieksa,63.3167,30.0167,28.49,90,100,7.85,FI,1635016367
284,vao,-22.6667,167.4833,71.73,80,32,15.55,NC,1635016367
285,warri,5.5167,5.75,73.65,94,100,2.42,NG,1635016368
286,lorengau,-2.0226,147.2712,80.65,82,43,9.48,PG,1635016368
287,tiruvannamalai,12.2167,79.0667,76.55,89,89,1.7,IN,1635016368
288,lavrentiya,65.5833,-171.0,23.58,85,100,9.66,RU,1635016369
289,mbuji-mayi,-6.15,23.6,79.2,62,100,2.68,CD,1635016369
290,hualmay,-11.0964,-77.6139,68.59,70,13,12.44,PE,1635016369
291,burgos,42.3394,-3.7079,46.81,61,0,3.44,ES,1635016370
292,villazon,-22.0866,-65.5942,73.18,5,31,32.26,BO,1635016370
293,carutapera,-1.195,-46.02,85.08,66,100,7.9,BR,1635016370
294,la ronge,55.1001,-105.2842,41.05,59,16,16.58,CA,1635016370
295,tombouctou,20.0,-3.0,86.74,20,0,5.64,ML,1635016371
296,banjar,-8.19,114.9675,76.91,87,88,4.9,ID,1635016371
297,palasa,18.7667,84.4167,74.12,74,100,3.06,IN,1635016371
298,curup,-3.4667,102.5333,68.94,96,93,1.59,ID,1635016372
299,namibe,-15.1961,12.1522,66.45,69,14,12.19,AO,1635016106
300,wanaka,-44.7,169.15,58.1,70,100,4.0,NZ,1635016372
301,flinders,-34.5833,150.8552,62.2,88,78,1.99,AU,1635016372
302,zeya,53.75,127.2667,35.06,75,8,2.08,RU,1635016373
303,kodinsk,58.6881,99.1844,35.08,75,100,10.2,RU,1635016373
304,narino,5.6089,-75.1766,73.42,81,93,2.98,CO,1635016373
305,bohodukhiv,50.1647,35.5276,45.93,59,4,7.47,UA,1635016374
306,yeniseysk,58.4497,92.1703,36.43,96,100,12.35,RU,1635016374
307,tuatapere,-46.1333,167.6833,50.86,96,100,1.54,NZ,1635016374
308,palivere,58.9664,23.8911,38.68,80,100,9.17,EE,1635016375
309,kansanshi,-12.0951,26.4273,70.39,52,25,0.51,ZM,1635016375
310,tiksi,71.6872,128.8694,-0.71,100,100,5.44,RU,1635016375
311,ostersund,63.1792,14.6357,36.05,87,40,8.05,SE,1635016375
312,itarema,-2.9248,-39.9167,84.67,66,60,16.28,BR,1635016376
313,souillac,-20.5167,57.5167,74.35,80,9,9.89,MU,1635016376
314,kisanga,-7.4362,37.7034,79.75,60,8,9.6,TZ,1635016376
315,grand gaube,-20.0064,57.6608,74.37,76,98,5.99,MU,1635016377
316,inhambane,-23.865,35.3833,74.73,85,0,16.91,MZ,1635016377
317,missoula,47.0166,-113.8009,41.52,79,83,9.33,US,1635016377
318,abong mbang,3.9833,13.1833,68.31,97,98,2.13,CM,1635016378
319,bangangte,5.1409,10.5198,61.95,96,95,2.44,CM,1635016378
320,ulaangom,49.9811,92.0667,32.76,61,0,2.44,MN,1635016378
321,sao joao da barra,-21.6403,-41.0511,73.94,80,16,16.31,BR,1635016378
322,nome,64.5011,-165.4064,30.27,75,1,4.61,US,1635016167
323,kindu,-2.95,25.95,75.61,78,86,0.83,CD,1635016379
324,kruisfontein,-34.0033,24.7314,57.88,65,81,16.44,ZA,1635016379
325,pangody,65.85,74.4859,32.23,98,100,9.86,RU,1635016379
326,saint-augustin,51.226,-58.6502,40.95,86,100,16.55,CA,1635016380
327,astoria,46.1879,-123.8313,55.85,94,90,1.99,US,1635016380
328,garcia,25.8167,-100.5833,90.77,48,0,5.64,MX,1635016380
329,asau,46.4333,26.4,49.39,66,100,2.59,RO,1635016381
330,oceanside,33.1959,-117.3795,70.23,79,90,1.01,US,1635016381
331,vanimo,-2.6741,141.3028,77.02,86,74,5.77,PG,1635016382
332,batemans bay,-35.7167,150.1833,59.09,91,100,5.14,AU,1635016382
333,qaqortoq,60.7167,-46.0333,36.1,72,28,5.19,GL,1635016383
334,lidingo,59.3667,18.1833,35.1,89,13,0.0,SE,1635016383
335,natal,-5.795,-35.2094,84.85,65,20,19.57,BR,1635016383
336,ilulissat,69.2167,-51.1,19.42,79,90,23.02,GL,1635016384
337,at-bashi,41.1702,75.8106,25.65,35,0,3.51,KG,1635016384
338,puerto escondido,15.85,-97.0667,83.23,69,90,5.75,MX,1635016384
339,thompson,55.7435,-97.8558,37.33,72,100,3.27,CA,1635016224
340,warwick,41.7001,-71.4162,63.93,52,75,8.05,US,1635016296
341,kailua,21.4022,-157.7394,82.38,62,20,8.05,US,1635016385
342,bethel,41.3712,-73.414,60.06,59,20,6.91,US,1635016385
343,esperance,-33.8667,121.9,52.77,67,28,16.64,AU,1635016385
344,carballo,43.213,-8.691,57.87,86,34,3.8,ES,1635016386
345,kirakira,-10.4544,161.9205,80.71,77,54,8.95,SB,1635016386
346,kuminskiy,58.6667,66.5667,41.29,75,16,13.49,RU,1635016386
347,coruripe,-10.1256,-36.1756,82.15,73,42,15.88,BR,1635016387
348,port jervis,41.3751,-74.6927,60.71,71,100,6.35,US,1635016387
349,boulsa,12.6675,-0.5758,86.56,44,100,9.53,BF,1635016387
350,zhezkazgan,47.8043,67.7144,44.22,42,19,9.19,KZ,1635016388
351,abu dhabi,24.4667,54.3667,86.11,70,0,5.75,AE,1635016112
352,borogontsy,62.6683,131.1683,10.74,97,100,3.36,RU,1635016158
353,tocopilla,-22.092,-70.1979,64.18,59,21,5.93,CL,1635016388
354,quelimane,-17.8786,36.8883,76.84,79,6,10.47,MZ,1635016388
355,batagay,67.6333,134.6333,1.4,97,100,4.09,RU,1635016389
356,sibolga,1.7427,98.7792,76.41,91,100,4.03,ID,1635016389
357,airai,-8.9266,125.4092,61.14,83,14,1.72,TL,1635016389
358,ostrovnoy,68.0531,39.5131,27.07,91,100,16.11,RU,1635016390
359,laukaa,58.7372,29.8453,37.72,83,100,9.95,RU,1635016390
360,pevek,69.7008,170.3133,10.94,95,100,5.61,RU,1635016390
361,noumea,-22.2763,166.4572,75.99,99,98,7.72,NC,1635016391
362,los llanos de aridane,28.6585,-17.9182,66.13,74,75,10.0,ES,1635016391
363,matelandia,-25.2408,-53.9964,73.31,83,100,9.95,BR,1635016391
364,evensk,61.95,159.2333,10.62,75,100,11.18,RU,1635016391
365,kortkeros,61.8106,51.5806,32.0,98,100,4.76,RU,1635016392
366,sao miguel do araguaia,-13.275,-50.1628,91.56,40,100,4.97,BR,1635016392
367,aklavik,68.2191,-135.0107,24.64,92,42,7.52,CA,1635016392
368,matamoros,25.5333,-103.25,86.11,35,20,6.91,MX,1635016393
369,maniwaki,46.3834,-75.966,44.11,50,98,3.02,CA,1635016393
370,kibala,9.1104,18.3463,76.32,81,92,11.3,TD,1635016393
371,waipawa,-41.4122,175.5153,55.45,72,97,2.86,NZ,1635016394
372,merritt island,28.5392,-80.672,89.87,59,1,8.05,US,1635016394
373,kismayo,-0.3582,42.5454,78.48,76,6,10.27,SO,1635016394
374,saint cloud,45.5608,-94.1625,51.87,57,1,3.0,US,1635016367
375,beloha,-25.1667,45.05,71.58,81,0,4.83,MG,1635016395
376,morant bay,17.8815,-76.4093,87.62,74,43,10.29,JM,1635016395
377,lompoc,34.6391,-120.4579,72.01,61,1,14.97,US,1635016395
378,sterling,39.0062,-77.4286,69.12,66,75,8.99,US,1635016256
379,yavas,54.4159,42.8491,41.85,79,13,8.32,RU,1635016396
380,semey,50.4111,80.2275,45.37,57,100,17.56,KZ,1635016396
381,liberia,6.5,-9.5,73.09,98,100,2.98,LR,1635016396
382,nyurba,63.2842,118.3319,34.86,89,100,9.22,RU,1635016397
383,asyut,27.181,31.1837,74.7,43,5,14.61,EG,1635016216
384,imeni poliny osipenko,52.4201,136.4853,25.93,96,7,3.29,RU,1635016397
385,santa rosa,14.3122,121.1114,79.11,83,100,8.88,PH,1635016397
386,yumen,40.2833,97.2,41.54,42,100,4.05,CN,1635016398
387,coihaique,-45.5752,-72.0662,54.21,40,40,16.11,CL,1635016142
388,sao filipe,14.8961,-24.4956,80.06,68,3,6.91,CV,1635016398
389,ontario,34.0633,-117.6509,69.67,83,75,4.0,US,1635016398
390,havelock,34.8791,-76.9013,77.99,64,40,1.99,US,1635016399
391,bom jesus,-9.0744,-44.3586,75.52,90,100,7.9,BR,1635016399
392,isangel,-19.55,169.2667,75.16,82,92,10.92,VU,1635016399
393,kommunar,59.6206,30.39,36.43,87,99,11.48,RU,1635016119
394,ballina,-28.8667,153.5667,71.78,93,11,6.89,AU,1635016400
395,suez,29.9737,32.5263,67.62,69,0,10.11,EG,1635016400
396,ust-uda,54.1742,103.0304,33.12,93,88,2.1,RU,1635016400
397,college,64.8569,-147.8028,35.29,88,75,0.0,US,1635016401
398,labuhan,-6.8844,112.2051,79.77,79,96,8.97,ID,1635016401
399,shenzhen,22.5455,114.0683,70.14,84,100,6.51,CN,1635016246
400,joshimath,30.5667,79.5667,52.68,58,0,6.31,IN,1635016401
401,jacqueville,5.2052,-4.4146,80.51,83,90,9.64,CI,1635016277
402,pinawa,50.1489,-95.8811,42.67,56,73,3.33,CA,1635016402
403,dudinka,69.4058,86.1778,21.87,96,100,6.69,RU,1635016402
404,dicabisagan,17.0818,122.4157,77.5,88,100,5.35,PH,1635016402
405,sheridan,44.8333,-106.9173,58.01,40,90,4.0,US,1635016403
406,marzuq,14.4,46.4667,74.25,30,9,4.05,YE,1635016403
407,erenhot,43.6475,111.9767,43.16,37,0,5.39,CN,1635016403
408,east wenatchee bench,47.4257,-120.2812,54.68,66,90,3.44,US,1635016404
409,nuuk,64.1835,-51.7216,29.01,50,75,9.22,GL,1635016277
410,tecolutilla,18.2833,-93.3167,87.94,75,100,5.12,MX,1635016404
411,grahamstown,-33.3042,26.5328,51.03,79,0,21.83,ZA,1635016404
412,constitucion,-35.3333,-72.4167,59.52,58,0,18.68,CL,1635016405
413,teluknaga,-6.0989,106.6381,80.19,88,20,2.3,ID,1635016405
414,vanderhoof,54.0166,-124.0198,47.41,59,79,4.54,CA,1635016405
415,verkhnyaya inta,65.9811,60.3094,25.41,91,96,15.99,RU,1635016405
416,porto empedocle,37.2934,13.5264,71.91,69,100,11.39,IT,1635016406
417,barranca,-10.75,-77.7667,67.28,70,8,12.46,PE,1635016406
418,madras,13.0878,80.2785,84.18,79,40,0.0,IN,1635016235
419,gazojak,41.1875,61.4036,51.04,33,0,10.47,TM,1635016407
420,sambava,-14.2667,50.1667,75.52,91,30,3.22,MG,1635016407
421,sulangan,11.1373,123.7228,79.95,86,100,20.09,PH,1635016407
422,coahuayana,18.7333,-103.6833,89.08,72,100,6.11,MX,1635016407
423,myitkyina,25.3833,97.4,68.86,94,18,1.19,MM,1635016408
424,kikwit,-5.041,18.8162,73.53,91,92,0.22,CD,1635016408
425,barpali,21.2,83.5833,68.65,71,2,1.77,IN,1635016408
426,coquimbo,-29.9533,-71.3436,62.33,59,0,13.8,CL,1635016396
427,tiznit,29.5833,-9.5,65.08,72,0,3.27,MA,1635016409
428,abha,18.2164,42.5053,62.85,22,0,3.44,SA,1635016408
429,arlit,18.7369,7.3853,89.91,11,6,3.85,NE,1635016409
430,luganville,-15.5333,167.1667,77.88,88,45,5.88,VU,1635016409
431,zhirnovsk,50.9845,44.7735,53.71,80,100,11.68,RU,1635016410
432,atar,20.5169,-13.0499,86.05,12,0,6.82,MR,1635016410
433,nanga eboko,4.6833,12.3667,69.15,95,99,2.42,CM,1635016410
434,tommot,58.9564,126.2925,31.66,92,100,3.33,RU,1635016411
435,charleston,32.7766,-79.9309,81.1,46,1,1.99,US,1635016411
436,bairiki,1.3292,172.9752,78.8,78,75,2.3,KI,1635016411
437,vasto,42.1243,14.7059,61.45,89,100,8.95,IT,1635016412
438,gizo,-8.103,156.8419,82.36,77,71,12.46,SB,1635016412
439,dubbo,-32.25,148.6167,55.53,62,0,11.5,AU,1635016412
440,barcelona,41.3888,2.159,63.81,77,0,2.3,ES,1635016155
441,miyakonojo,31.7333,131.0667,52.45,82,32,4.5,JP,1635016413
442,chiredzi,-21.05,31.6667,88.75,27,0,6.44,ZW,1635016413
443,muros,42.7762,-9.0603,60.84,87,58,2.37,ES,1635016413
444,svetlogorsk,52.6333,29.7333,42.35,76,100,12.66,BY,1635016413
445,kushmurun,52.4503,64.6311,50.14,76,100,11.59,KZ,1635016414
446,yanam,16.7333,82.2167,75.11,94,98,1.41,IN,1635016414
447,beyneu,45.3167,55.2,53.24,25,0,11.79,KZ,1635016414
448,strezhevoy,60.7333,77.5889,44.58,92,100,12.41,RU,1635016415
449,thanh hoa,19.8,105.7667,62.37,77,36,4.74,VN,1635016415
450,moerai,-22.4333,-151.3333,71.56,66,100,11.34,PF,1635016415
451,dubai,25.2582,55.3047,87.73,55,0,4.61,AE,1635016229
452,petropavlovsk-kamchatskiy,53.0452,158.6483,27.19,100,75,2.24,RU,1635016415
453,xam nua,20.4197,104.0439,55.29,99,43,2.17,LA,1635016416
454,srandakan,-7.9386,110.2506,77.4,87,100,4.23,ID,1635016416
455,yima,34.7381,111.8839,48.07,66,15,0.89,CN,1635016416
456,shingu,33.7333,135.9833,49.17,72,0,5.95,JP,1635016417
457,bonavista,48.6499,-53.1147,53.1,99,100,8.81,CA,1635016417
458,dwarka,22.2394,68.9678,81.32,65,98,15.82,IN,1635016417
459,tadine,-21.55,167.8833,71.89,85,4,10.67,NC,1635016418
460,kautokeino,69.0125,23.0412,11.64,86,100,4.72,NO,1635016418
461,paris,48.8534,2.3488,50.14,77,0,4.61,FR,1635015799
462,jacareacanga,-6.2222,-57.7528,88.54,55,100,2.77,BR,1635016418
463,emerald,-23.5333,148.1667,71.35,79,20,9.26,AU,1635016266
464,caravelas,-17.7125,-39.2481,78.22,71,25,8.63,BR,1635016419
465,kozhevnikovo,56.2589,83.9714,41.25,80,100,16.58,RU,1635016419
466,okato,-39.2,173.8833,53.42,91,100,16.37,NZ,1635016419
467,alofi,-19.0595,-169.9187,74.32,67,91,20.33,NU,1635016420
468,krasnoselkup,65.7,82.4667,32.41,99,100,9.35,RU,1635016420
469,ambilobe,-13.2,49.05,76.28,84,4,3.47,MG,1635016420
470,pochutla,15.7432,-96.4661,82.81,60,91,8.25,MX,1635016421
471,thunder bay,48.4001,-89.3168,46.56,61,99,9.22,CA,1635016421
472,zhangjiakou,40.81,114.8794,41.94,45,0,1.41,CN,1635016421
473,les cayes,18.2,-73.75,85.39,65,16,13.15,HT,1635016422
474,alice springs,-23.7,133.8833,69.35,32,100,12.66,AU,1635016345
475,kyshtovka,56.555,76.6271,47.79,83,100,15.93,RU,1635016422
476,kem,64.9555,34.5793,28.24,89,100,8.32,RU,1635016422
477,dryden,49.7833,-92.7503,37.69,87,75,2.3,CA,1635016423
478,usinsk,65.9939,57.5281,22.17,91,59,14.27,RU,1635016423
479,poum,-20.2333,164.0167,73.44,80,8,13.18,NC,1635016423
480,asfi,32.2994,-9.2372,66.38,64,0,20.11,MA,1635016423
481,pendencias,-5.26,-36.7222,85.33,57,38,19.28,BR,1635016424
482,gallup,35.5281,-108.7426,60.64,32,1,4.0,US,1635016424
483,port-gentil,-0.7193,8.7815,77.86,83,32,10.31,GA,1635016272
484,aranos,-24.1333,19.1167,68.2,12,0,17.16,NA,1635016424
485,guerrero negro,27.9769,-114.0611,71.17,61,2,17.52,MX,1635016329
486,calabozo,8.9242,-67.4293,87.57,52,100,5.12,VE,1635016425
487,zhanaozen,43.3,52.8,52.95,22,1,13.56,KZ,1635016425
488,atbasar,51.8,68.3333,49.33,76,83,17.02,KZ,1635016425
489,kilindoni,-7.9139,39.6668,78.17,76,6,13.8,TZ,1635016426
490,tessalit,20.1986,1.0114,91.15,14,43,6.69,ML,1635016426
491,kulhudhuffushi,6.6221,73.07,81.52,78,100,13.82,MV,1635016426
492,paragominas,-2.9667,-47.4833,85.51,57,100,1.83,BR,1635016427
493,mehamn,71.0357,27.8492,35.24,59,100,19.13,NO,1635016427
494,changping,40.2186,116.2197,37.04,53,11,3.36,CN,1635016427
495,gamba,-2.65,10.0,76.24,87,100,5.61,GA,1635016427
496,kavieng,-2.5744,150.7967,81.75,78,97,14.2,PG,1635016428
497,granada,37.25,-3.25,55.11,58,76,1.43,ES,1635016305
498,businga,3.3333,20.8833,71.19,97,100,2.28,CD,1635016428
499,lubango,-14.9172,13.4925,65.41,26,99,4.7,AO,1635016429
500,marang,5.2056,103.2059,79.02,81,96,1.1,MY,1635016429
501,rundu,-17.9333,19.7667,86.5,29,96,5.77,NA,1635016429
502,omsukchan,62.5333,155.8,-1.93,96,98,3.27,RU,1635016429
503,saquisili,-0.8333,-78.6667,62.83,66,75,6.91,EC,1635016430
504,lugo,43.0,-7.5,55.9,87,100,0.56,ES,1635016430
505,kandalaksha,67.162,32.4123,25.61,90,100,4.07,RU,1635016430
506,yala,6.3333,101.25,73.29,98,76,2.28,TH,1635016246
507,buraydah,26.326,43.975,80.28,16,0,7.81,SA,1635016431
508,russkaya polyana,49.417,31.9201,44.24,52,6,8.23,UA,1635016431
509,rosarito,32.3333,-117.0333,68.58,69,90,8.52,MX,1635016431
510,exeter,50.7236,-3.5275,56.86,78,100,11.03,GB,1635016306
511,pemba,-12.974,40.5178,77.79,80,8,14.12,MZ,1635016432
512,copiapo,-27.3667,-70.3333,62.29,28,0,12.26,CL,1635016432
513,dunedin,-45.8742,170.5036,53.8,81,100,8.01,NZ,1635016432
514,necochea,-38.5473,-58.7368,60.04,67,67,23.0,AR,1635016433
515,sobolevo,54.4299,31.8996,41.83,68,97,15.95,RU,1635016433
516,diffa,13.3154,12.6113,88.36,15,7,5.77,NE,1635016433
517,sioux lookout,50.1001,-91.917,37.78,67,93,5.95,CA,1635016434
518,balboa,2.0396,-77.2168,72.37,72,98,3.04,CO,1635016434
519,shebunino,46.4339,141.8603,47.19,74,12,9.57,RU,1635016434
520,alexandria,31.2156,29.9553,71.31,59,0,7.72,EG,1635015962
521,ambulu,-8.345,113.6058,76.39,85,100,2.24,ID,1635016435
522,uvinza,-5.1036,30.3911,73.83,68,11,3.76,TZ,1635016435
523,itoman,26.1247,127.6694,73.42,64,75,9.22,JP,1635016435
524,shahrud,36.4182,54.9763,48.43,24,0,0.51,IR,1635016436
525,taltal,-25.4,-70.4833,61.18,69,18,6.89,CL,1635016436
526,rabapatona,47.6322,17.48,48.09,57,6,6.64,HU,1635016436
527,mehnagar,25.8833,83.1167,73.42,64,0,4.74,IN,1635016437
528,mokhsogollokh,61.4681,128.9203,29.77,94,100,2.84,RU,1635016437
529,katobu,-4.9408,122.5276,75.11,91,99,1.95,ID,1635016437
530,kondinskoye,59.6481,67.41,41.4,79,52,16.82,RU,1635016437
531,birao,10.2849,22.7882,76.71,74,99,4.23,CF,1635016438
532,filadelfia,39.9523,-75.1638,65.26,63,75,4.0,US,1635016222
533,atambua,-9.1061,124.8925,75.99,84,46,2.13,ID,1635016438
534,muriti,-1.9833,32.9167,75.38,72,98,12.68,TZ,1635016438
535,rabaul,-4.1967,152.1721,79.3,79,44,7.65,PG,1635016439
536,high level,58.5169,-117.136,44.19,70,100,8.08,CA,1635016439
537,cabedelo,-6.9811,-34.8339,82.13,69,44,10.63,BR,1635016261
538,suleja,9.1758,7.1808,72.5,88,75,2.1,NG,1635016439
539,rumoi,43.9344,141.6428,46.31,74,77,3.47,JP,1635016440
540,belaya gora,68.5333,146.4167,-7.83,92,98,4.16,RU,1635016440
541,bereda,43.2686,-7.5406,56.57,78,100,1.21,ES,1635016441
542,sandpoint,48.2766,-116.5533,50.68,77,75,1.01,US,1635016408
543,rorvik,64.8621,11.2373,44.92,64,100,4.79,NO,1635016441
544,belem de sao francisco,-8.7539,-38.9658,90.45,40,100,9.78,BR,1635016442
545,esil,51.9556,66.4042,49.93,70,47,15.08,KZ,1635016442
546,chernyshevsk,52.5243,117.0174,30.81,81,6,2.39,RU,1635016443
547,yabelo,4.8833,38.0833,61.41,75,42,6.85,ET,1635016443
548,santa maria,-29.6842,-53.8069,64.2,97,100,6.87,BR,1635016430
